City_ID,City,Lat,Lng,Max Temp,Humidity,Cloudiness,Wind Speed,Country,Date
0,port-aux-francais,-49.35,70.2167,1.9,65,100,7.31,TF,1690661607
1,abqaiq,25.9371,49.6776,32.67,30,0,2.14,SA,1690661607
2,wailua homesteads,22.0669,-159.378,27.24,87,75,8.23,US,1690661607
3,aasiaat,68.7098,-52.8699,2.87,92,94,2.96,GL,1690661607
4,nemuro,43.3236,145.575,18.06,97,98,2.8,JP,1690661608
5,albany,42.6001,-73.9662,27.75,84,88,3.23,US,1690661568
6,grytviken,-54.2811,-36.5092,1.1,98,100,10.23,GS,1690661608
7,shingu,33.7333,135.9833,24.73,88,99,1.17,JP,1690661608
8,fort bragg,35.139,-79.006,31.36,66,75,6.69,US,1690661469
9,sechura,-5.5569,-80.8222,27.74,57,27,7.05,PE,1690661609
10,adamstown,-25.066,-130.1015,18.8,57,18,10.43,PN,1690661609
11,whitehorse,60.7161,-135.0538,25.43,33,20,3.6,CA,1690661563
12,puerto natales,-51.7236,-72.4875,4.75,87,93,6.8,CL,1690661609
13,odda,60.0691,6.5457,16.85,83,100,0.88,NO,1690661610
14,falenki,58.3613,51.5946,19.51,90,56,3.65,RU,1690661610
15,alofi,-19.0595,-169.9187,20.94,100,100,5.14,NU,1690661610
16,buala,-8.145,159.5921,25.83,88,95,4.28,SB,1690661610
17,vinita,36.6387,-95.1541,36.03,21,11,4.54,US,1690661611
18,ottawa,45.4112,-75.6981,17.8,66,75,3.09,CA,1690661343
19,talnakh,69.4865,88.3972,18.45,82,97,2.49,RU,1690661612
20,blackmans bay,-43.0167,147.3167,15.41,58,30,8.0,AU,1690661612
21,minas de marcona,-15.2119,-75.1103,19.3,56,1,4.51,PE,1690661612
22,college,64.8569,-147.8028,20.18,74,75,2.57,US,1690661613
23,nova vicosa,-17.8919,-39.3719,22.85,78,100,3.41,BR,1690661613
24,waitangi,-43.9535,-176.5597,9.34,96,100,0.89,NZ,1690661613
25,tura,25.5198,90.2201,23.73,96,60,1.7,IN,1690661613
26,ilulissat,69.2167,-51.1,4.01,100,75,2.06,GL,1690661613
27,la penita de jaltomba,21.0333,-105.25,33.27,58,29,2.93,MX,1690661614
28,port elizabeth,-33.918,25.5701,12.83,53,65,12.39,ZA,1690661614
29,bir el ater,34.7449,8.0602,34.11,10,0,3.37,DZ,1690661614
30,tiksi,71.6872,128.8694,2.64,85,9,1.98,RU,1690661614
31,bom jesus,-9.0744,-44.3586,35.83,20,12,1.97,BR,1690661615
32,kailua-kona,19.6406,-155.9956,29.04,75,20,7.2,US,1690661615
33,hermanus,-34.4187,19.2345,9.33,74,86,8.47,ZA,1690661615
34,bredasdorp,-34.5322,20.0403,9.51,79,72,6.48,ZA,1690661616
35,dhandhuka,22.3667,71.9833,26.9,82,44,6.07,IN,1690661616
36,naze,28.3667,129.4833,26.0,86,32,4.38,JP,1690661616
37,olonkinbyen,70.9221,-8.7187,6.22,89,100,1.05,SJ,1690661616
38,edinburgh of the seven seas,-37.0676,-12.3116,14.64,87,100,7.86,SH,1690661617
39,idri,27.5,13.2667,34.28,14,0,2.96,LY,1690661617
40,aginskoye,51.1,114.53,17.41,70,35,1.28,RU,1690661617
41,tazacorte,28.629,-17.9293,23.54,90,20,7.2,ES,1690661618
42,isafjordur,66.0755,-23.124,9.6,82,78,2.45,IS,1690661618
43,constantia,44.1833,28.65,22.38,69,98,5.16,RO,1690661491
44,pea ridge,38.414,-82.3199,34.3,57,98,1.79,US,1690661618
45,camapua,-19.5314,-54.0439,30.99,29,12,1.84,BR,1690661619
46,macon,39.8667,-88.9668,31.03,66,0,4.63,US,1690661619
47,tucumcari,35.1717,-103.725,37.19,18,0,6.17,US,1690661619
48,muli,2.9167,73.5667,26.96,79,90,4.35,MV,1690661619
49,happy valley-goose bay,53.3168,-60.3315,18.17,63,75,5.14,CA,1690661619
50,badger,64.8,-147.5333,20.14,77,100,2.57,US,1690661620
51,mujiayingzi,42.1167,118.7833,22.17,85,100,2.82,CN,1690661620
52,udachny,66.4167,112.4,18.03,48,0,1.28,RU,1690661620
53,mermoz boabab,14.7065,-17.4758,28.88,84,75,4.12,SN,1690661620
54,bilibino,68.0546,166.4372,7.5,93,100,1.34,RU,1690661621
55,usogorsk,63.4106,48.6872,19.22,96,51,3.06,RU,1690661621
56,uturoa,-16.7333,-151.4333,26.64,77,27,10.96,PF,1690661621
57,billings,45.7833,-108.5007,28.49,49,20,2.06,US,1690661494
58,saudarkrokur,65.7461,-19.6394,10.31,86,100,2.58,IS,1690661621
59,ambodifotatra,-16.9833,49.85,23.43,65,69,5.15,MG,1690661622
60,jamestown,42.097,-79.2353,21.96,88,100,5.14,US,1690661622
61,georgetown,5.4112,100.3354,27.96,89,20,0.0,MY,1690661622
62,codrington,-38.2667,141.9667,10.63,84,41,7.9,AU,1690661622
63,east london,-33.0153,27.9116,16.46,44,37,7.98,ZA,1690661623
64,papatowai,-46.5619,169.4708,7.64,81,100,1.74,NZ,1690661623
65,donggang,28.9365,114.2259,23.76,97,69,0.97,CN,1690661623
66,hamilton,39.1834,-84.5333,31.81,64,40,4.12,US,1690661557
67,longyearbyen,78.2186,15.6401,8.91,71,75,5.14,SJ,1690661624
68,lagunillas,10.1301,-71.2595,32.49,59,5,4.08,VE,1690661624
69,fort st. john,56.2499,-120.8529,21.94,40,20,4.12,CA,1690661624
70,holualoa,19.6228,-155.9522,26.97,76,20,7.2,US,1690661624
71,hadibu,12.65,54.0333,26.14,77,10,7.61,YE,1690661625
72,bijie,27.3125,105.2942,17.69,91,69,1.44,CN,1690661625
73,shurugwi,-19.6702,30.0059,15.28,34,2,3.32,ZW,1690661625
74,crane,31.3974,-102.3501,35.83,20,0,6.27,US,1690661625
75,guozhen,34.3659,107.359,22.32,95,99,0.27,CN,1690661625
76,san sebastian de la gomera,28.0916,-17.1133,24.65,68,0,2.06,ES,1690661626
77,murghob,38.1702,73.9667,9.15,65,100,1.12,TJ,1690661626
78,easton,40.6884,-75.2207,32.44,61,75,7.72,US,1690661340
79,stanley,54.868,-1.6985,15.03,82,20,4.12,GB,1690661561
80,port mathurin,-19.6833,63.4167,23.27,77,86,5.85,MU,1690661627
81,springbok,-29.6643,17.8865,3.75,94,74,3.14,ZA,1690661627
82,jindabyne,-36.4167,148.6333,3.72,89,2,2.66,AU,1690661627
83,enewetak,11.3474,162.3373,26.48,92,100,8.77,MH,1690661627
84,yellowknife,62.456,-114.3525,21.98,88,100,4.02,CA,1690661627
85,coquimbo,-29.9533,-71.3436,13.85,88,75,3.09,CL,1690661490
86,thompson,55.7435,-97.8558,25.09,38,100,3.09,CA,1690661628
87,cambria,35.5641,-121.0808,38.64,51,43,4.95,US,1690661628
88,iqaluit,63.7506,-68.5145,12.85,67,75,2.06,CA,1690661629
89,hradyz'k,49.2346,33.1361,20.62,72,15,3.87,UA,1690661629
90,podstrana,43.4833,16.5833,24.46,67,0,1.67,HR,1690661629
91,hatillo,18.4863,-66.8254,33.0,82,33,2.68,PR,1690661629
92,mankachar,25.5333,89.8667,26.67,89,23,2.57,IN,1690661629
93,polyarnyy,69.1989,33.4478,11.99,94,100,2.01,RU,1690661630
94,invercargill,-46.4,168.35,2.79,93,98,0.89,NZ,1690661630
95,mata-utu,-13.2816,-176.1745,27.18,74,94,1.94,WF,1690661630
96,anadyr,64.75,177.4833,13.28,82,75,3.58,RU,1690661630
97,nuuk,64.1835,-51.7216,11.34,66,75,5.66,GL,1690661631
98,nogliki,51.8333,143.1667,11.77,99,100,1.11,RU,1690661631
99,lensk,60.7253,114.9278,16.37,75,87,1.79,RU,1690661631
100,rocky mountain house,52.3668,-114.9188,17.06,77,38,3.6,CA,1690661547
101,porto novo,6.4965,2.6036,25.9,89,100,2.78,BJ,1690661632
102,avarua,-21.2078,-159.775,25.03,88,100,5.66,CK,1690661632
103,punta arenas,-53.15,-70.9167,4.08,82,94,8.86,CL,1690661633
104,north battleford,52.7834,-108.2847,20.05,56,20,1.54,CA,1690661531
105,cabo san lucas,22.8909,-109.9124,34.17,49,20,5.66,MX,1690661375
106,huanggang,23.677,116.9996,25.75,91,100,1.42,CN,1690661523
107,margaret river,-33.95,115.0667,13.85,73,99,4.68,AU,1690661634
108,mogocha,53.7333,119.7667,14.09,94,20,1.06,RU,1690661634
109,vadso,70.0744,29.7487,12.09,94,75,9.77,NO,1690661634
110,st. john's,47.5649,-52.7093,24.04,77,75,7.72,CA,1690661604
111,san pedro pochutla,15.7333,-96.4667,34.28,58,100,3.26,MX,1690661634
112,colonia,50.9333,6.95,19.42,86,20,2.43,DE,1690661635
113,twon-brass,4.3151,6.2418,25.76,84,95,3.84,NG,1690661635
114,mabaruma,8.2,-59.7833,27.34,92,79,2.01,GY,1690661635
115,goure,13.9835,10.2704,34.3,32,6,3.0,NE,1690661635
116,severoural'sk,60.1533,59.952,15.53,83,3,0.77,RU,1690661636
117,praia da vitoria,38.7333,-27.0667,25.98,88,40,3.74,PT,1690661636
118,kodiak,57.79,-152.4072,14.73,88,100,6.17,US,1690661636
119,sitka,57.0531,-135.33,17.94,72,20,1.54,US,1690661636
120,pisco,-13.7,-76.2167,21.03,73,0,6.17,PE,1690661637
121,hawaiian paradise park,19.5933,-154.9731,27.73,68,40,4.63,US,1690661637
122,dumai,1.6833,101.45,24.11,97,100,1.53,ID,1690661638
123,ushuaia,-54.8,-68.3,7.81,71,75,10.8,AR,1690661564
124,chibougamau,49.9168,-74.3659,13.79,58,75,2.06,CA,1690661638
125,santa elena de uairen,4.6167,-61.1333,25.71,65,43,2.76,VE,1690661639
126,gornopravdinsk,60.05,69.9,16.23,98,33,3.26,RU,1690661639
127,klaksvik,62.2266,-6.589,13.51,98,100,8.13,FO,1690661639
128,dudinka,69.4058,86.1778,18.68,87,80,1.99,RU,1690661639
129,west island,-12.1568,96.8225,24.99,78,40,8.75,CC,1690661640
130,fuerte olimpo,-21.0415,-57.8738,30.19,38,2,1.53,PY,1690661640
131,zungeru,9.8128,6.1558,27.99,83,99,1.32,NG,1690661640
132,sao joao da barra,-21.6403,-41.0511,22.05,74,99,7.63,BR,1690661641
133,port moresby,-9.4431,147.1797,22.87,90,95,4.05,PG,1690661641
134,berdigestyakh,62.0989,126.6992,12.04,74,28,2.1,RU,1690661641
135,la gi,10.6667,107.7833,25.21,90,99,4.31,VN,1690661641
136,sarkisla,39.3519,36.4098,17.26,58,0,1.96,TR,1690661641
137,afaahiti,-17.75,-149.2833,26.93,76,87,11.13,PF,1690661642
138,mount gambier,-37.8333,140.7667,12.0,86,100,5.7,AU,1690661347
139,kiunga,-6.1219,141.2906,22.11,99,100,1.65,PG,1690661642
140,lompoc,34.6391,-120.4579,36.68,60,11,2.24,US,1690661642
141,kruisfontein,-34.0033,24.7314,11.6,66,100,13.27,ZA,1690661643
142,ibresi,55.2961,47.0394,17.74,95,100,3.43,RU,1690661643
143,lhasa,29.65,91.1,15.64,69,100,1.61,CN,1690661643
144,akureyri,65.6835,-18.0878,11.96,87,75,3.6,IS,1690661643
145,isla vista,34.4133,-119.861,36.81,56,10,3.84,US,1690661644
146,dwarka,22.2394,68.9678,27.63,84,86,9.83,IN,1690661644
147,ribeira grande,38.5167,-28.7,25.43,83,20,5.14,PT,1690661644
148,dapa,9.7594,126.0531,27.79,78,100,1.72,PH,1690661644
149,hithadhoo,-0.6,73.0833,27.01,79,100,4.71,MV,1690661645
150,sidney,-33.8679,151.2073,14.66,76,12,2.06,AU,1690661390
151,fort mcmurray,56.7268,-111.381,24.77,38,0,4.63,CA,1690661645
152,kosh-agach,50.0,88.6667,8.13,76,6,0.66,RU,1690661645
153,grand forks,47.9417,-97.4337,22.1,43,75,5.14,US,1690661646
154,aleksandrov gay,50.147,48.5704,23.54,54,0,3.6,RU,1690661646
155,kodinar,20.7903,70.7031,26.62,87,87,7.9,IN,1690661648
156,alice springs,-23.7,133.8833,12.75,100,100,0.0,AU,1690661648
157,colby,39.3958,-101.0524,31.01,52,0,5.66,US,1690661649
158,richards bay,-28.783,32.0377,23.51,48,9,7.86,ZA,1690661649
159,valparaiso,-33.0393,-71.6273,24.13,46,0,6.17,CL,1690661649
160,kapa'a,22.0752,-159.319,27.99,87,75,8.23,US,1690661649
161,karema,-6.8205,30.4389,22.81,57,6,0.48,TZ,1690661650
162,quellon,-43.1167,-73.6167,11.75,76,99,6.13,CL,1690661650
163,banda aceh,5.5577,95.3222,26.81,80,70,6.91,ID,1690661442
164,markovo,57.3206,107.0881,17.22,84,100,1.3,RU,1690661650
165,bethel,41.3712,-73.414,32.23,69,40,4.63,US,1690661651
166,ca mau,9.1769,105.15,25.08,90,100,2.98,VN,1690661651
167,priozersk,61.0393,30.1291,16.16,92,100,5.45,RU,1690661651
168,mount isa,-20.7333,139.5,10.87,87,13,0.0,AU,1690661651
169,prince rupert,54.3161,-130.3201,14.83,96,100,3.09,CA,1690661651
170,labrador city,52.9463,-66.9114,14.95,55,75,5.66,CA,1690661652
171,severo-yeniseyskiy,60.3725,93.0408,15.3,94,100,1.6,RU,1690661652
172,keren,15.7778,38.4581,24.26,63,8,1.49,ER,1690661652
173,borogontsy,62.6683,131.1683,13.09,76,46,0.92,RU,1690661652
174,coahuayana de hidalgo,18.7,-103.6583,35.26,50,9,3.37,MX,1690661653
175,leninskoye,41.7589,69.3864,26.16,21,0,1.92,KZ,1690661653
176,nadym,65.5333,72.5167,12.67,80,69,6.47,RU,1690661653
177,hasaki,35.7333,140.8333,25.73,93,11,5.03,JP,1690661653
178,san patricio,28.017,-97.5169,36.77,39,36,6.91,US,1690661654
179,vilyuysk,63.7553,121.6247,13.74,69,0,1.59,RU,1690661654
180,labytnangi,66.6572,66.4183,13.39,81,6,1.5,RU,1690661654
181,kerikeri,-35.2268,173.9474,8.86,79,100,1.27,NZ,1690661655
182,vigan,17.5747,120.3869,26.63,82,100,4.4,PH,1690661655
183,vostochnyy,55.8167,37.8667,15.1,94,100,2.53,RU,1690661655
184,tyukhtet,56.5389,89.3011,14.07,96,78,0.97,RU,1690661655
185,pasuquin,18.3328,120.6177,25.62,92,100,2.68,PH,1690661655
186,chonchi,-42.6128,-73.8092,12.84,79,100,4.57,CL,1690661656
187,isangel,-19.55,169.2667,19.4,65,87,4.9,VU,1690661656
188,carrigaline,51.8117,-8.3986,14.86,88,75,5.66,IE,1690661656
189,ankang,32.68,109.0172,22.83,91,26,0.37,CN,1690661539
190,illizi,26.4833,8.4667,36.89,10,0,4.41,DZ,1690661657
191,ambad,19.6167,75.8,23.06,87,74,4.82,IN,1690661657
192,victorica,-36.2151,-65.4359,23.46,24,85,7.1,AR,1690661657
193,lebu,-37.6167,-73.65,13.92,90,100,2.37,CL,1690661657
194,breckenridge,32.7557,-98.9023,39.11,21,0,4.63,US,1690661657
195,baraki barak,33.9675,68.9486,23.38,45,31,2.22,AF,1690661658
196,slavyanka,42.8633,131.3847,21.3,96,100,3.01,RU,1690661658
197,port douglas,-16.4833,145.4667,20.04,83,25,4.16,AU,1690661658
198,rongelap,11.1635,166.8941,28.39,80,100,9.74,MH,1690661658
199,inari,68.906,27.0288,13.11,98,100,4.16,FI,1690661659
200,kuching,1.55,110.3333,28.34,88,20,0.0,MY,1690661659
201,bikenibeu village,1.3673,173.1241,29.98,74,40,3.6,KI,1690661659
202,brisas de zicatela,15.8369,-97.0419,32.29,58,75,3.09,MX,1690661660
203,al bawiti,28.3492,28.8659,30.72,19,0,4.52,EG,1690661660
204,rafsanjan,30.4067,55.9939,32.49,17,4,2.57,IR,1690661660
205,fortuna,40.5982,-124.1573,22.18,68,0,6.69,US,1690661660
206,debre tabor,11.85,38.0167,13.18,87,93,0.52,ET,1690661661
207,saraktash,51.7866,51.7866,22.03,73,85,3.1,RU,1690661661
208,saint-pierre,-21.3393,55.4781,19.82,68,0,3.09,RE,1690661661
209,nacala,-14.5428,40.6728,20.73,75,0,1.98,MZ,1690661662
210,maun,-19.9833,23.4167,20.72,24,0,5.53,BW,1690661662
211,ruteng,-8.6136,120.4721,15.05,90,95,1.03,ID,1690661662
212,sharm el-sheikh,27.8518,34.305,35.08,26,0,3.09,EG,1690661518
213,auki,-8.7676,160.7034,24.4,90,100,2.66,SB,1690661663
214,turtas,58.9417,69.1325,15.57,98,33,2.71,RU,1690661663
215,namibe,-15.1961,12.1522,17.19,71,12,4.39,AO,1690661663
216,merizo village,13.2658,144.6691,26.31,77,91,1.41,GU,1690661663
217,peace river,56.2501,-117.286,23.17,43,20,6.69,CA,1690661664
218,port alfred,-33.5906,26.891,13.43,68,46,3.13,ZA,1690661664
219,zelenoborskiy,66.845,32.3622,14.22,81,100,2.95,RU,1690661664
220,floro,61.5996,5.0328,17.04,72,98,0.51,NO,1690661665
221,awjilah,29.1081,21.2869,31.16,33,0,5.36,LY,1690661665
222,ust-nera,64.5667,143.2,11.52,90,99,2.62,RU,1690661665
223,mahina,-17.5065,-149.489,27.87,65,20,7.72,PF,1690661418
224,namtsy,62.7161,129.6658,12.78,76,3,1.92,RU,1690661665
225,santiago de cao,-7.9589,-79.2392,24.07,69,47,4.63,PE,1690661666
226,fale old settlement,-9.3852,-171.2468,28.07,75,70,7.3,TK,1690661666
227,albert,50.0009,2.651,18.29,58,0,4.12,FR,1690661666
228,susuman,62.7833,148.1667,11.62,65,94,0.74,RU,1690661666
229,belmopan,17.25,-88.7667,26.21,98,100,2.1,BZ,1690661667
230,atafu village,-8.5421,-172.5159,27.85,76,100,5.73,TK,1690661667
231,vorgashor,67.5833,63.95,12.76,86,12,1.17,RU,1690661667
232,tacuarembo,-31.7333,-55.9833,14.3,59,11,2.83,UY,1690661546
233,saraj,42.0,21.3278,23.75,44,6,2.13,MK,1690661668
234,rio grande,-32.035,-52.0986,14.06,73,100,2.55,BR,1690661668
235,daru,-9.0763,143.2092,24.7,85,98,6.4,PG,1690661418
236,bodo,67.28,14.405,13.86,88,20,1.54,NO,1690661669
237,porbandar,21.6422,69.6093,27.31,85,75,9.15,IN,1690661425
238,tadmur,34.5608,38.2805,29.35,30,0,6.1,SY,1690661669
239,broome,42.2506,-75.833,23.21,93,100,8.75,US,1690661669
240,cabugao,17.7931,120.4578,26.61,95,100,3.29,PH,1690661669
241,tazovsky,67.4667,78.7,11.94,99,100,3.44,RU,1690661670
242,tchintabaraden,15.8969,5.7985,27.71,60,74,3.33,NE,1690661670
243,wenchang,30.904,118.4887,23.84,96,100,2.27,CN,1690661670
244,keflavik,64.0049,-22.5624,13.24,76,75,3.09,IS,1690661670
245,kilifi,-3.6305,39.8499,23.58,86,7,6.0,KE,1690661585
246,tindouf,27.6711,-8.1474,40.25,11,0,5.14,DZ,1690661671
247,port blair,11.6667,92.75,27.76,85,100,10.24,IN,1690661671
248,peniche,39.3558,-9.3811,21.27,87,4,6.35,PT,1690661671
249,nuku'alofa,-21.1333,-175.2,18.19,77,20,1.54,TO,1690661671
250,beichengqu,40.4394,113.1536,19.83,86,99,1.6,CN,1690661672
251,howrah,22.5892,88.3103,29.0,94,40,1.54,IN,1690661672
252,petropavlovsk-kamchatsky,53.0452,158.6483,13.33,100,75,2.0,RU,1690661672
253,hudson,40.7168,-74.0663,33.92,55,0,6.69,US,1690661407
254,dzhetygara,52.1908,61.2006,20.34,67,0,3.03,KZ,1690661673
255,chistyye bory,58.3647,41.6278,14.83,98,100,2.34,RU,1690661673
256,port lincoln,-34.7333,135.8667,13.65,86,5,7.04,AU,1690661673
257,bubaque,11.2833,-15.8333,25.81,90,100,6.27,GW,1690661673
258,jeddah,21.5169,39.2192,34.92,21,0,1.03,SA,1690661673
259,treasure island,27.7692,-82.769,33.92,70,40,2.57,US,1690661674
260,huilong,31.8111,121.655,27.74,89,98,8.86,CN,1690661674
261,chulakkurgan,43.765,69.1814,25.26,25,0,1.99,KZ,1690661674
262,almenara,-16.1836,-40.6944,26.56,50,100,2.76,BR,1690661674
263,taltal,-25.4,-70.4833,18.76,67,24,1.92,CL,1690661675
264,cobram,-35.9167,145.65,7.04,91,0,2.23,AU,1690661675
265,matoury,4.8483,-52.3317,29.98,70,40,5.66,GF,1690661675
266,sarankhola,22.3082,89.7897,27.33,93,20,2.51,BD,1690661675
267,levuka,50.1834,-105.4011,22.9,30,19,1.98,CA,1690661675
268,sydney mines,46.2367,-60.2177,25.7,71,75,6.69,CA,1690661676
269,puerto baquerizo moreno,-0.9,-89.6,24.3,82,89,5.06,EC,1690661676
270,nar'yan-mar,67.6713,53.087,18.55,77,68,5.0,RU,1690661676
271,brandon,27.9378,-82.2859,34.49,74,0,2.57,US,1690661677
272,amga,60.8953,131.9608,12.79,75,6,0.84,RU,1690661677
273,yurgamysh,55.3714,64.4656,17.53,71,0,2.61,RU,1690661677
274,preobrazheniye,42.9019,133.9064,20.77,97,100,3.01,RU,1690661677
275,puquio,-14.7,-74.1333,17.22,30,30,4.4,PE,1690661677
276,port saint john's,-31.6229,29.5448,18.35,67,100,3.94,ZA,1690661678
277,bargaal,11.2864,51.0773,29.37,57,18,11.69,SO,1690661678
278,kingston,17.997,-76.7936,34.58,58,88,1.34,JM,1690661479
279,vila do maio,15.1333,-23.2167,27.44,74,96,4.61,CV,1690661679
280,oranjemund,-28.55,16.4333,11.29,76,6,2.66,NA,1690661679
281,ati,13.2154,18.3353,34.27,35,98,3.66,TD,1690661679
282,beyneu,45.3167,55.2,29.73,41,6,7.1,KZ,1690661679
283,beloyarskiy,63.7119,66.6722,14.35,90,0,1.63,RU,1690661679
284,antonio enes,-16.2325,39.9086,22.84,66,0,4.14,MZ,1690661680
285,mariehamn,60.0973,19.9348,19.34,94,0,1.03,AX,1690661680
286,tommot,58.9564,126.2925,12.9,90,0,0.53,RU,1690661538
287,kupang,-10.1667,123.5833,23.06,87,52,3.28,ID,1690661680
288,lerwick,60.1545,-1.1494,14.0,97,100,4.09,GB,1690661681
289,singojuruh,-8.3167,114.2333,20.97,94,99,0.24,ID,1690661681
290,kudahuvadhoo,2.6708,72.8944,27.07,76,90,2.55,MV,1690661681
291,lata,40.1629,-8.3327,20.04,75,0,2.09,PT,1690661681
292,kusong,39.9811,125.2447,21.88,98,100,0.8,KP,1690661681
293,kismayo,-0.3582,42.5454,24.37,86,56,6.36,SO,1690661682
294,harper,4.375,-7.7169,25.24,83,100,3.83,LR,1690661682
295,flying fish cove,-10.4217,105.6791,23.82,88,100,5.66,CX,1690661682
296,mandan,46.8267,-100.8896,27.67,53,0,2.57,US,1690661599
297,langxiang,46.95,128.8833,17.48,97,61,1.9,CN,1690661683
298,sukhinichi,54.0999,35.3425,16.74,70,100,1.43,RU,1690661683
299,karystos,38.0133,24.4161,28.01,30,0,0.45,GR,1690661683
300,bel ombre,-4.6167,55.4167,25.91,83,20,4.12,SC,1690661683
301,lihue,21.9789,-159.3672,27.58,83,75,8.23,US,1690661683
302,whakatane,-37.9585,176.9854,7.1,97,14,2.32,NZ,1690661684
303,greymouth,-42.4667,171.2,3.86,89,18,2.72,NZ,1690661684
304,iskateley,67.6803,53.1512,18.44,77,63,4.98,RU,1690661684
305,selfoss,63.9331,-20.9971,13.91,75,100,1.77,IS,1690661684
306,san jose de jachal,-30.2406,-68.7469,26.51,10,56,2.54,AR,1690661685
307,juneau,58.3019,-134.4197,22.83,100,40,4.12,US,1690661578
308,inhambane,-23.865,35.3833,21.26,79,43,6.72,MZ,1690661685
309,ozd,48.2167,20.3,18.72,84,50,1.28,HU,1690661685
310,island harbour,50.724,-1.2758,18.42,86,51,1.34,GB,1690661686
311,nova sintra,14.8667,-24.7167,22.32,75,14,7.2,CV,1690661686
312,saipan,15.1355,145.701,26.39,89,0,1.54,MP,1690661686
313,tahla,34.0485,-4.428,31.9,31,83,3.3,MA,1690661687
314,halstead,51.328,0.1327,19.1,59,20,3.6,GB,1690661687
315,kayangel,8.0823,134.7173,28.3,78,100,6.22,PW,1690661687
316,khadyzhensk,44.4256,39.5319,16.8,78,0,1.13,RU,1690661687
317,kantemirovka,49.7089,39.8592,14.77,91,4,3.36,RU,1690661690
318,enriquillo,17.9,-71.2333,31.82,68,73,5.91,DO,1690661690
319,kerben,40.2951,72.1863,24.28,28,84,3.02,KG,1690661690
320,cochabamba,-17.3895,-66.1568,22.86,18,20,3.09,BO,1690661667
321,zaozersk,69.4005,32.4476,11.21,98,99,1.8,RU,1690661691
322,ancud,-41.8697,-73.8203,11.44,87,100,7.98,CL,1690661691
323,luderitz,-26.6481,15.1594,12.5,69,18,7.11,NA,1690661691
324,nagqu,31.5,92.0,5.3,88,100,0.64,CN,1690661691
325,qaqortoq,60.7167,-46.0333,8.14,74,31,1.3,GL,1690661691
326,imbituba,-28.24,-48.6703,15.13,70,4,2.95,BR,1690661692
327,itacoatiara,-3.1431,-58.4442,35.1,34,88,1.92,BR,1690661692
328,igbeti,8.75,4.1333,23.26,93,100,2.45,NG,1690661692
329,puerto ayora,-0.7393,-90.3518,29.98,87,66,3.58,EC,1690661692
330,ola,59.5833,151.2833,12.86,94,100,1.77,RU,1690661693
331,cadale,2.7603,46.3222,25.27,83,65,7.05,SO,1690661697
332,jamaame,0.0697,42.745,24.01,86,41,4.59,SO,1690661697
333,nelson bay,-32.7167,152.15,15.0,90,25,1.79,AU,1690661698
334,aykhal,66.0,111.5,14.97,57,9,1.54,RU,1690661698
335,belel,7.05,14.4333,16.79,98,100,1.09,CM,1690661698
336,pangai,-19.8,-174.35,21.16,58,7,6.19,TO,1690661698
337,raja,8.4596,25.678,25.18,70,100,1.71,SS,1690661699
338,dzhalagash,45.0833,64.6667,30.47,25,57,3.86,KZ,1690661699
339,sao domingos do maranhao,-5.5758,-44.3853,35.94,25,22,3.12,BR,1690661699
340,mbekenyera,-10.0,38.9833,19.38,84,0,2.61,TZ,1690661699
341,karratha,-20.7377,116.8463,19.49,31,83,4.59,AU,1690661700
342,anatoli,39.6389,20.8653,21.86,60,0,1.03,GR,1690661700
343,palmer,42.1584,-72.3287,30.5,65,75,2.57,US,1690661700
344,la ronge,55.1001,-105.2842,24.14,31,75,4.12,CA,1690661700
345,taoudenni,22.6783,-3.9836,41.44,11,12,5.33,ML,1690661701
346,bosaso,11.2842,49.1816,34.35,37,3,11.12,SO,1690661701
347,al khinzirah,31.0567,35.6017,24.64,43,0,3.05,JO,1690661701
348,vila velha,-20.3297,-40.2925,22.97,86,100,7.2,BR,1690661701
349,nsanje,-16.92,35.262,21.97,49,0,0.9,MW,1690661702
350,myshkin,57.7897,38.4545,12.4,96,100,1.95,RU,1690661702
351,mejit,10.2753,170.8646,28.3,79,89,9.24,MH,1690661702
352,robertsport,6.7533,-11.3686,26.15,82,100,6.36,LR,1690661703
353,castillos,-34.1667,-53.8333,11.49,67,100,2.58,UY,1690661703
354,laguna,38.421,-121.4238,35.6,26,0,4.63,US,1690661703
355,quelimane,-17.8786,36.8883,21.1,82,0,3.55,MZ,1690661414
356,sumenep,-7.0167,113.8667,24.15,79,55,4.83,ID,1690661704
357,mersing,2.4312,103.8405,24.95,94,20,2.57,MY,1690661704
358,yaren,-0.5472,166.916,28.47,74,78,2.78,NR,1690661704
359,necochea,-38.5473,-58.7368,14.68,61,100,8.2,AR,1690661704
360,razumnoye,50.5344,36.6846,18.6,77,0,3.0,RU,1690661705
361,mumford,5.2618,-0.759,24.13,92,42,3.23,GH,1690661706
362,trondheim,63.4305,10.3951,17.03,90,0,1.01,NO,1690661706
363,villa gesell,-37.2639,-56.973,14.47,69,31,7.98,AR,1690661661
364,dame-marie,18.5667,-74.4167,29.2,67,100,1.25,HT,1690661706
365,geraldton,-28.7667,114.6,15.23,94,100,1.54,AU,1690661707
366,yeysk,46.6989,38.2792,23.38,67,49,6.2,RU,1690661707
367,tokar,18.4254,37.729,34.93,33,10,2.45,SD,1690661707
368,altrip,49.4356,8.4947,22.97,77,0,2.57,DE,1690661707
369,chipinge,-20.1883,32.6236,15.42,48,3,2.22,ZW,1690661708
370,umba,66.6871,34.3429,12.3,81,100,5.17,RU,1690661708
371,labasa,-16.4167,179.3833,21.85,78,95,4.9,FJ,1690661709
372,tongliao,43.6125,122.2653,23.72,87,100,6.15,CN,1690661709
373,bang saphan,11.2126,99.5117,26.77,82,100,3.94,TH,1690661709
374,gryazovets,58.88,40.2525,13.12,98,100,3.54,RU,1690661710
375,ruston,32.5232,-92.6379,38.66,29,5,1.52,US,1690661576
376,pierre,44.3683,-100.351,29.6,39,0,6.17,US,1690661710
377,syktyvkar,61.6764,50.8099,21.62,83,0,2.0,RU,1690661711
378,khandyga,62.6667,135.6,13.06,62,78,1.17,RU,1690661711
379,maumere,-8.6199,122.2111,24.07,85,28,1.88,ID,1690661711
380,khvalynsk,52.4906,48.1058,22.46,59,41,3.54,RU,1690661711
381,concepcion,-36.827,-73.0498,13.89,94,100,3.09,CL,1690661712
382,imperia,43.9667,7.7833,21.08,90,10,1.91,IT,1690661712
383,spittal an der drau,46.8,13.5,20.48,97,94,2.0,AT,1690661712
384,sanandaj,35.3144,46.9923,30.01,18,40,3.09,IR,1690661712
385,acara,-1.9608,-48.1967,29.1,65,92,0.82,BR,1690661713
386,villa emilio carranza,19.9667,-96.6,29.14,72,100,5.43,MX,1690661713
387,as sulayyil,20.4607,45.5779,37.14,15,65,3.71,SA,1690661713
388,korla,41.7597,86.1469,25.99,33,100,2.85,CN,1690661713
389,tweed heads,-28.1817,153.547,11.02,100,75,2.57,AU,1690661714
390,indramayu,-6.3264,108.32,23.25,71,100,4.45,ID,1690661501
391,borkum,53.5809,6.6915,18.97,81,1,5.09,DE,1690661714
392,maych'ew,12.7875,39.5422,17.87,65,54,1.96,ET,1690661714
393,sol'-iletsk,51.1631,54.9918,26.23,40,95,3.06,RU,1690661715
394,tlaxco,19.6167,-98.1167,21.08,53,31,4.18,MX,1690661715
395,lejanias,3.5251,-74.0216,24.97,87,42,1.29,CO,1690661715
396,carnarvon,-24.8667,113.6333,15.28,74,0,6.64,AU,1690661715
397,antsiranana,-12.2787,49.2917,22.45,67,0,5.0,MG,1690661716
398,fang,19.9169,99.2145,23.56,100,100,0.57,TH,1690661716
399,riversdale,18.1659,-76.9642,33.97,54,93,2.8,JM,1690661716
400,portland,45.5234,-122.6762,26.54,51,20,4.12,US,1690661423
401,cachoeira,-12.6183,-38.9558,24.25,76,12,3.48,BR,1690661717
402,nizhniy odes,63.6445,54.856,17.78,82,45,2.47,RU,1690661717
403,alibag,18.6411,72.8792,27.04,87,58,6.52,IN,1690661717
404,amassoma,4.9692,6.1097,23.96,93,93,1.37,NG,1690661718
405,vila franca do campo,37.7167,-25.4333,24.23,76,0,1.52,PT,1690661718
406,ibate,-21.9547,-47.9967,20.49,58,25,4.72,BR,1690661434
407,carutapera,-1.195,-46.02,27.97,75,7,4.19,BR,1690661718
408,ke-macina,13.9623,-5.3572,29.85,58,45,4.83,ML,1690661719
409,utrik,11.2278,169.8474,28.31,79,100,9.54,MH,1690661719
410,touros,-5.1989,-35.4608,26.12,71,23,5.69,BR,1690661719
411,kaiapoi,-43.3783,172.6401,1.42,93,100,1.03,NZ,1690661719
412,impfondo,1.6381,18.0667,22.76,96,100,1.56,CG,1690661719
413,forster,-32.1667,152.5167,13.54,75,8,2.62,AU,1690661720
414,siemiatycze,52.4272,22.8623,18.27,68,98,3.37,PL,1690661720
415,griffith,41.5284,-87.4237,29.47,67,0,5.66,US,1690661720
416,mount pearl,47.5166,-52.7813,23.58,77,75,7.72,CA,1690661720
417,traverse city,44.7631,-85.6206,26.11,57,40,3.6,US,1690661523
418,malango,-2.9627,119.9001,17.26,93,62,1.05,ID,1690661721
419,gadzhiyevo,69.2551,33.3362,11.25,97,100,2.61,RU,1690661721
420,grand baie,-20.0182,57.5802,23.26,72,50,0.89,MU,1690661721
421,karlovy vary,50.2327,12.8712,18.19,88,0,1.03,CZ,1690661642
422,sangaria,29.8,74.45,31.25,61,66,1.15,IN,1690661522
423,mayahi,13.9553,7.6712,34.35,35,32,3.7,NE,1690661722
424,rio preto da eva,-2.6994,-59.6997,35.71,32,91,1.01,BR,1690661722
425,westport,41.1415,-73.3579,33.75,66,0,4.63,US,1690661450
426,kasongo-lunda,-6.4667,16.8167,25.76,39,0,0.79,CD,1690661723
427,remire-montjoly,4.9167,-52.2667,30.02,70,40,5.66,GF,1690661723
428,baloda bazar,21.6667,82.1667,27.22,84,100,3.55,IN,1690661723
429,hastings,50.8552,0.5729,17.91,36,90,8.83,GB,1690661723
430,dabakala,8.3667,-4.4333,23.37,94,33,1.65,CI,1690661724
431,kapuskasing,49.4169,-82.4331,22.05,40,75,5.14,CA,1690661724
432,tolanaro,-25.0319,46.9987,19.4,86,1,5.33,MG,1690661724
433,freetown,8.484,-13.2299,23.84,100,75,2.06,SL,1690661725
434,miresu mare,47.5,23.3333,19.1,87,100,1.78,RO,1690661725
435,ar ruways,24.1103,52.7306,32.73,60,29,3.3,AE,1690661725
436,salinopolis,-0.6136,-47.3561,28.0,76,62,5.24,BR,1690661725
437,villa huidobro,-34.8383,-64.5869,22.14,29,10,4.55,AR,1690661726
438,marksville,31.128,-92.0662,38.03,30,2,2.47,US,1690661726
439,lianzhou,24.7811,112.3825,24.91,99,100,1.46,CN,1690661727
440,pangody,65.85,74.4859,14.68,83,100,7.16,RU,1690661727
441,chui,-33.6971,-53.4616,10.54,71,100,2.47,UY,1690661604
442,saint-joseph,-21.3667,55.6167,19.21,77,24,5.03,RE,1690661728
443,medina de rioseco,41.8833,-5.0441,26.87,37,0,5.43,ES,1690661729
444,mokhsogollokh,61.4681,128.9203,12.04,71,16,1.96,RU,1690661729
445,yeed,4.55,43.0333,26.38,61,62,8.47,SO,1690661729
446,montepuez,-13.1256,38.9997,17.83,71,0,2.29,MZ,1690661730
447,namsos,64.4662,11.4957,13.95,77,100,1.03,NO,1690661730
448,zuni pueblo,35.0725,-108.8506,34.35,17,100,2.36,US,1690661730
449,meulaboh,4.1363,96.1285,24.83,88,92,0.69,ID,1690661730
450,kristiansund,63.1115,7.732,18.03,88,0,5.14,NO,1690661731
451,pemalang,-6.9,109.3667,22.56,77,91,3.52,ID,1690661731
452,sandakan,5.8402,118.1179,26.82,83,20,1.54,MY,1690661731
453,ust-tsilma,65.441,52.1498,18.77,92,100,2.52,RU,1690661731
454,weno,7.4515,151.8468,26.97,89,100,2.06,FM,1690661731
455,smithers,54.7804,-127.1743,26.22,33,5,0.93,CA,1690661732
456,toliara,-23.35,43.6667,18.05,73,0,2.21,MG,1690661732
457,sultanpur,26.2667,82.0667,30.6,65,99,2.36,IN,1690661732
458,ha'il,27.5219,41.6907,33.01,14,0,2.06,SA,1690661733
459,chemax,20.65,-87.9333,37.68,32,98,2.87,MX,1690661733
460,swakopmund,-22.6833,14.5333,12.77,82,0,2.68,NA,1690661733
461,tarime,-1.35,34.3667,20.14,70,80,0.96,TZ,1690661733
462,acapulco de juarez,16.8634,-99.8901,32.9,66,75,6.69,MX,1690661477
463,cole harbour,44.6724,-63.4751,28.29,68,71,4.63,CA,1690661734
464,jamai,22.2,78.5833,22.93,90,99,4.96,IN,1690661734
465,snyder,32.7179,-100.9176,36.84,19,0,4.12,US,1690661734
466,roma,43.2128,-75.4557,21.71,92,100,3.13,US,1690661735
467,gizo,-8.103,156.8419,26.47,82,83,3.51,SB,1690661735
468,la passe,45.5549,-0.8967,20.13,86,17,5.12,FR,1690661735
469,amahai,-3.3333,128.9167,28.33,90,98,2.31,ID,1690661736
470,macusani,-14.0833,-70.4333,3.04,83,100,2.33,PE,1690661736
471,calderitas,18.55,-88.25,31.06,70,75,5.14,MX,1690661736
472,talcahuano,-36.7167,-73.1167,13.82,94,100,3.09,CL,1690661736
473,tezu,27.9167,96.1667,24.88,90,88,1.39,IN,1690661736
474,harstad,68.799,16.5293,12.67,100,48,2.68,NO,1690661737
475,punta del este,-34.9667,-54.95,15.49,66,100,1.79,UY,1690661737
476,bismarck,46.8083,-100.7837,27.58,46,40,2.57,US,1690661737
477,henley beach,-34.9206,138.4944,11.01,80,0,4.63,AU,1690661738
478,shizunai-furukawacho,42.3339,142.3669,22.11,94,100,0.97,JP,1690661738
479,nouadhibou,20.931,-17.0347,22.99,73,26,6.17,MR,1690661738
480,yondo,7.0062,-73.9097,37.01,40,2,0.4,CO,1690661738
481,luganville,-15.5333,167.1667,22.15,73,100,4.63,VU,1690661739
482,kangaba,11.9333,-8.4167,26.91,67,100,1.9,ML,1690661739
483,vilyuchinsk,52.9306,158.4028,14.15,94,100,1.6,RU,1690661540
484,bella union,-30.2752,-57.6007,17.55,51,0,3.86,UY,1690661739
485,egilsstadir,65.2653,-14.3948,7.95,87,75,5.66,IS,1690661740
486,zhosaly,45.4878,64.0781,31.68,31,40,3.09,KZ,1690661740
487,cardona,14.45,121.2167,24.82,99,100,4.83,PH,1690661740
488,mersa matruh,31.3525,27.2453,27.11,78,40,5.66,EG,1690661740
489,mogadishu,2.0371,45.3438,24.8,86,88,6.42,SO,1690661741
490,sur,22.5667,59.5289,31.63,64,69,2.01,OM,1690661741
491,penzance,50.1186,-5.5371,16.54,83,87,10.1,GB,1690661741
492,sinabang,2.4803,96.3801,26.21,81,89,0.9,ID,1690661741
493,haiku-pauwela,20.9219,-156.3051,29.01,58,20,9.77,US,1690661741
494,curaca,-8.9903,-39.9094,32.48,27,0,2.76,BR,1690661742
495,san luis de la loma,17.2706,-100.8939,33.17,58,19,4.66,MX,1690661742
496,progreso,21.2833,-89.6667,36.73,71,95,7.85,MX,1690661742
497,guerrero negro,27.9769,-114.0611,27.97,45,9,5.47,MX,1690661742
498,arraial do cabo,-22.9661,-42.0278,20.92,68,100,4.12,BR,1690661743
499,prince george,53.9166,-122.753,25.7,49,0,1.34,CA,1690661524
500,beyla,8.6833,-8.6333,20.87,97,97,1.36,GN,1690661743
501,bishnupur,23.0833,87.3167,29.11,80,92,2.52,IN,1690661743
502,tchaourou,8.8865,2.5975,23.25,93,100,1.44,BJ,1690661743
503,san andres,12.5847,-81.7006,31.01,74,20,6.17,CO,1690661680
504,saurimo,-9.6608,20.3916,21.51,24,0,1.15,AO,1690661746
505,belyy yar,53.6039,91.3903,17.94,82,0,3.0,RU,1690661746
506,yung shue wan,22.2333,114.1167,29.82,89,100,5.2,HK,1690661746
507,barah,13.7,30.3667,30.67,50,66,7.58,SD,1690661746
508,tambuwal,12.4039,4.6469,29.72,55,36,2.87,NG,1690661746
509,papao,-17.75,-149.55,27.82,76,8,12.27,PF,1690661721
510,eastham,41.8301,-69.9739,29.01,81,0,6.17,US,1690661747
511,mohr,54.3528,9.7167,18.08,87,57,3.6,DE,1690661747
512,borba,-4.3878,-59.5939,37.69,23,47,1.74,BR,1690661748
513,northam,51.0333,-4.2167,16.33,85,100,8.64,GB,1690661748
514,monrovia,6.3005,-10.7969,25.87,82,100,5.58,LR,1690661748
515,malmberget,67.1753,20.6549,12.31,88,100,5.14,SE,1690661748
516,nyala,12.05,24.8833,27.33,62,40,7.31,SD,1690661749
517,queenstown,-31.8976,26.8753,6.53,71,73,10.29,ZA,1690661749
518,fuglafjordur,62.244,-6.814,13.26,98,100,6.62,FO,1690661749
519,corbelia,-24.7989,-53.3067,19.64,63,0,1.01,BR,1690661749
520,werther,52.0777,8.4179,18.56,81,0,2.71,DE,1690661749
521,cockburn town,21.4612,-71.1419,30.98,66,40,6.69,TC,1690661750
522,olinda,-8.0089,-34.8553,25.85,83,40,6.69,BR,1690661578
523,kavaratti,10.5669,72.642,28.12,76,42,7.23,IN,1690661750
524,inirida,3.8653,-67.9239,29.17,79,24,1.09,CO,1690661750
525,bafq,31.6128,55.4107,33.07,14,0,5.61,IR,1690661750
526,jinxiang,27.4327,120.6062,25.93,91,100,1.6,CN,1690661751
527,altamont,42.2068,-121.7372,29.66,29,0,2.06,US,1690661751
528,kone,-21.0595,164.8658,16.67,70,53,1.56,NC,1690661751
529,voi,-3.3945,38.563,20.56,75,10,4.17,KE,1690661755
530,manicore,-5.8092,-61.3003,34.97,34,0,3.09,BR,1690661756
531,flin flon,54.7682,-101.865,23.91,43,75,4.12,CA,1690661717
532,zambezi,-13.5432,23.1047,18.79,27,5,0.82,ZM,1690661756
533,san antonio de pale,-1.4014,5.6325,22.77,83,100,5.85,GQ,1690661756
534,kaliua,-5.0606,31.7936,22.39,43,31,2.04,TZ,1690661757
535,nicoya,10.1483,-85.452,30.64,71,100,0.52,CR,1690661757
536,shaffa,10.5067,12.3332,24.32,70,45,1.46,NG,1690661757
537,ad dana,36.2125,36.7698,25.96,74,0,5.87,SY,1690661758
538,plettenberg bay,-34.0527,23.3716,11.46,89,100,14.04,ZA,1690661758
539,chela,34.069,104.4619,12.5,93,0,1.49,CN,1690661758
540,kununurra,-15.7667,128.7333,18.99,82,66,0.0,AU,1690661758
541,san francisco de la paz,14.9,-86.2,28.84,96,100,0.65,HN,1690661556
542,walvis bay,-22.9575,14.5053,12.83,71,0,7.73,NA,1690661759
543,waingapu,-9.6567,120.2641,22.69,87,35,2.38,ID,1690661759
544,novyy urgal,51.0736,132.5642,16.33,98,100,1.05,RU,1690661759
545,virginia,37.5481,-77.4467,37.51,52,40,7.2,US,1690661612
546,vakfikebir,41.0458,39.2764,22.93,81,6,2.13,TR,1690661760
547,kilindoni,-7.9139,39.6668,24.39,74,0,5.48,TZ,1690661760
